[{"name":"Андріївський","type":"узв.","prev_name":"Лівера ім. вул.[22]; Лівера","district":"Подільський","area":"Поділ, Старе місто","coordinates":[50.4501,30.5234],"name_ru":""},{"name":"Аркасівська","type":"вул.","prev_name":"Аркаса Миколи","district":"Оболонський","area":"","coordinates":[50.4501,30.5234],"name_ru":""},{"name":"Багряна дуброва","type":"вул.","prev_name":"","district":"Голосіївський","area":"Коник, Чапаєвка","coordinates":[50.4501,30.5234],"name_ru":""},{"name":"Багряного Івана","type":"вул.","prev_name":"","district":"Дніпровський","area":"ДВРЗ","coordinates":[50.4501,30.5234],"name_ru":""},{"name":"Білаша Олександра","type":"вул.","prev_name":"","district":"Деснянський","area":"Троєщина","coordinates":[50.4501,30.5234],"name_ru":""},{"name":"Богуславський","type":"узв.","prev_name":"","district":"Подільський","area":"Богуславщина, Юрковиця","coordinates":[50.4501,30.5234],"name_ru":""},{"name":"Богушевський","type":"пров.","prev_name":"","district":"Деснянський","area":"Куликове","coordinates":[50.4501,30.5234],"name_ru":""},{"name":"Боричів","type":"узв.","prev_name":"","district":"Подільський","area":"Поділ","coordinates":[50.4501,30.5234],"name_ru":""},{"name":"Бродівський 2-й","type":"пров.","prev_name":"","district":"Голосіївський","area":"Пирогів"},{"name":"Вирлицька","type":"вул.","prev_name":"Нова 5","district":"Дарницький","area":"Харківський масив","coordinates":[50.4501,30.5234],"name_ru":""},{"name":"Вінграновського Миколи","type":"вул.","prev_name":"Проектна 2","district":"Дарницький","area":"Рембаза","coordinates":[50.4501,30.5234],"name_ru":""},{"name":"Вірського Павла","type":"вул.","prev_name":"","district":"Деснянський","area":"Троєщина","coordinates":[50.4501,30.5234],"name_ru":""},{"name":"Володимирський","type":"узв.","prev_name":"Мостова вул., Олександрівська вул., Революції вул.[13][14], Кірова вул.[45]","district":"Печерський, Подільський, Шевченківський","area":"","coordinates":[50.4501,30.5234],"name_ru":""},{"name":"Врубелівський","type":"узв.","prev_name":"","district":"Шевченківський","area":"Реп'яхів яр","coordinates":[50.4501,30.5234],"name_ru":""},{"name":"Герасименка Костя","type":"вул.","prev_name":"Катеринівська; 1-а Поперечна","district":"Святошинський","area":"Катеринівка","coordinates":[50.4501,30.5234],"name_ru":""},{"name":"Герцена","type":"узв.","prev_name":"","district":"Шевченківський","area":"Реп'яхів Яр","coordinates":[50.4501,30.5234],"name_ru":""},{"name":"Горюшка Георгія","type":"вул.","prev_name":"Лінія 7","district":"Голосіївський","area":"Чапаєвка","coordinates":[50.4501,30.5234],"name_ru":""},{"name":"Даля Олександра","type":"вул.","prev_name":"Нова","district":"Деснянський","area":"Троєщина","coordinates":[50.4501,30.5234],"name_ru":""},{"name":"Дачно-Білицька","type":"вул.","prev_name":"","district":"Подільський","area":"Сирець","coordinates":[50.4501,30.5234],"name_ru":""},{"name":"Десенський","type":"пров.","prev_name":"Нова вул., Деснянський пров.[3]","district":"Деснянський","area":"Троєщина","coordinates":[50.4501,30.5234],"name_ru":""},{"name":"Дніпровський","type":"узв.","prev_name":"Спаський, Панкратьєвський, Миколаївський, Микільський, Бош Євгенії","district":"Печерський","area":"","coordinates":[50.4501,30.5234],"name_ru":""},{"name":"Драгомирова Михайла","type":"вул.","prev_name":"Нова, Драгомірова Михайла[32]","district":"Печерський","area":"Звіринець","coordinates":[50.4501,30.5234],"name_ru":""},{"name":"Дружби народів СРСР","type":"пл.","prev_name":"","district":"Оболонський","area":"Оболонь","coordinates":[50.4501,30.5234],"name_ru":""},{"name":"Жуків затон","type":"вул.","prev_name":"","district":"Голосіївський","area":"Коник","coordinates":[50.4501,30.5234],"name_ru":""},{"name":"Загороднього Михайла","type":"пл.","prev_name":"імені Загороднього М. П.[5]","district":"Оболонський","area":"Оболонь","coordinates":[50.5121639,30.5059039],"name_ru":""},{"name":"Запечерний","type":"пров.","prev_name":"Запечерна вул.; Запечерний[16]","district":"Печерський","area":"Звіринець, Наводничі","coordinates":[50.4501,30.5234],"name_ru":""},{"name":"Золоті джерела","type":"вул.","prev_name":"","district":"Голосіївський","area":"Коник","coordinates":[50.4501,30.5234],"name_ru":""},{"name":"Іскрівська","type":"вул.","prev_name":"Нова 506-а; Талалаївська[15]","district":"Солом'янський","area":"Першотравневий масив","coordinates":[50.43519999999999,30.457777],"name_ru":""},{"name":"Каблукова","type":"вул.","prev_name":"Нова","district":"Солом'янський","area":"Відрадний","coordinates":[50.438152,30.410666],"name_ru":""},{"name":"Кайсарова","type":"вул.","prev_name":"Совська Балка","district":"Голосіївський, Солом'янський","area":"Совки","coordinates":[50.407391,30.491352],"name_ru":""},{"name":"Квіткові луки","type":"вул.","prev_name":"","district":"Голосіївський","area":"Коник","coordinates":[50.4501,30.5234],"name_ru":""},{"name":"Керченська","type":"пл.","prev_name":"","district":"Деснянський, Дніпровський","area":"Виґурівщина-Троєщина, Воскресенка","coordinates":[50.49298899999999,30.590549],"name_ru":""},{"name":"Клейова долина","type":"вул.","prev_name":"","district":"Голосіївський","area":"Коник","coordinates":[50.4501,30.5234],"name_ru":""},{"name":"Кловський","type":"узв.","prev_name":"","district":"Печерський","area":"Печерськ, Липки","coordinates":[50.4501,30.5234],"name_ru":""},{"name":"Конєва Маршала","type":"вул.","prev_name":"Нова 6-а","district":"Голосіївський","area":"Теремки","coordinates":[50.385635,30.45665],"name_ru":""},{"name":"Космонавтів","type":"пл.","prev_name":"","district":"Солом'янський","area":"Чоколівка","coordinates":[50.43217800000001,30.455086],"name_ru":""},{"name":"Краєвидний","type":"пров.","prev_name":"","district":"Деснянський","area":"Троєщина","coordinates":[50.4501,30.5234],"name_ru":""},{"name":"Крутий","type":"узв.","prev_name":"Пащенка","district":"Печерський","area":"Бессарабка, Липки","coordinates":[50.4501,30.5234],"name_ru":""},{"name":"Кудрявський","type":"узв.","prev_name":"Нова вул.; Хользунова[46]","district":"Шевченківський","area":"Глибочиця, Кудрявець","coordinates":[50.4501,30.5234],"name_ru":""},{"name":"Лаврова Юрія","type":"вул.","prev_name":"Лінія 5","district":"Голосіївський","area":"Чапаєвка","coordinates":[50.4501,30.5234],"name_ru":""},{"name":"Липківського Василя Митрополита","type":"вул.","prev_name":"Велика, Ігнатьєвська, Залізняка, Урицького","district":"Солом'янський","area":"Солом'янка","coordinates":[50.4501,30.5234],"name_ru":""},{"name":"Лісова-Козинська","type":"вул.","prev_name":"","district":"Голосіївський","area":"","coordinates":[50.4501,30.5234],"name_ru":""},{"name":"Любимівська","type":"вул.","prev_name":"Любомирська[46]","district":"Оболонський","area":"","coordinates":[50.4501,30.5234],"name_ru":""},{"name":"Любимівська","type":"вул.","prev_name":"","district":"Святошинський","area":"Чайка","coordinates":[50.4501,30.5234],"name_ru":""},{"name":"Маршака 2-й","type":"пров.","prev_name":"","district":"Святошинський","area":"Біличі"},{"name":"Маршака 3-й","type":"пров.","prev_name":"","district":"Святошинський","area":"Біличі"},{"name":"Москаленка Маршала","type":"вул.","prev_name":"","district":"Дарницький","area":"Осокорки","coordinates":[50.4501,30.5234],"name_ru":""},{"name":"Музичанська","type":"вул.","prev_name":"","district":"Святошинський","area":"Чайка","coordinates":[50.4501,30.5234],"name_ru":""},{"name":"Печерський","type":"узв.","prev_name":"Понтонний пров.; Понтоннотелеграфний пров.","district":"Печерський","area":"Печерськ","coordinates":[50.4501,30.5234],"name_ru":""},{"name":"Пітерська","type":"вул.","prev_name":"Нова, П'ятихатська[14]","district":"Солом'янський","area":"Чоколівка, Першотравневий масив","coordinates":[50.435368,30.453674],"name_ru":""},{"name":"Подільський","type":"узв.","prev_name":"","district":"Шевченківський","area":"Куренівка, Реп'яхів яр","coordinates":[50.4501,30.5234],"name_ru":""},{"name":"Позняківська","type":"вул.","prev_name":"","district":"Дарницький","area":"Позняки","coordinates":[50.4501,30.5234],"name_ru":""},{"name":"Позняківський","type":"пров.","prev_name":"","district":"Дарницький","area":"Позняки","coordinates":[50.4501,30.5234],"name_ru":""},{"name":"Полупанова","type":"вул.","prev_name":"Новозападинська; Радомишльський пров.[7]","district":"Оболонський","area":"Пріорка","coordinates":[50.508892,30.457611],"name_ru":""},{"name":"Польовий 1-й","type":"пров.","prev_name":"","district":"Дарницький","area":"Бортничі"},{"name":"Поштова","type":"пл.","prev_name":"","district":"Подільський","area":"Поділ","coordinates":[48.624332,22.295578],"name_ru":""},{"name":"Прип'ятський","type":"пров.","prev_name":"","district":"Дарницький","area":"Позняки","coordinates":[50.4501,30.5234],"name_ru":""},{"name":"Радченко Клавдії","type":"вул.","prev_name":"Лінія 1","district":"Голосіївський","area":"Чапаєвка","coordinates":[50.4501,30.5234],"name_ru":""},{"name":"Родини Якубовських","type":"пров.","prev_name":"","district":"Голосіївський","area":"Добрий Шлях","coordinates":[50.4501,30.5234],"name_ru":""},{"name":"Рожнівська","type":"вул.","prev_name":"Рожківська","district":"Оболонський","area":"","coordinates":[50.4501,30.5234],"name_ru":""},{"name":"Романова Михайла","type":"вул.","prev_name":"Лінія 4","district":"Голосіївський","area":"Чапаєвка","coordinates":[50.4501,30.5234],"name_ru":""},{"name":"Руднєва Миколи","type":"вул.","prev_name":"Михайлівська + Нова 205-а, Руднєва[4]","district":"Дарницький","area":"Нова Дарниця","coordinates":[50.4501,30.5234],"name_ru":""},{"name":"Руднєва Миколи","type":"пров.","prev_name":"Нова 643-я вул., Руднєва[1][п 12]","district":"Дарницький","area":"Нова Дарниця","coordinates":[50.4501,30.5234],"name_ru":""},{"name":"Рябова Олега","type":"вул.","prev_name":"Лінія 2","district":"Голосіївський","area":"Чапаєвка","coordinates":[50.4501,30.5234],"name_ru":""},{"name":"Сваромська","type":"вул.","prev_name":"","district":"Оболонський","area":"","coordinates":[50.4501,30.5234],"name_ru":""},{"name":"Сетомльська","type":"вул.","prev_name":"","district":"Оболонський","area":"","coordinates":[50.4501,30.5234],"name_ru":""},{"name":"Ситняківська","type":"вул.","prev_name":"","district":"Святошинський","area":"Чайка","coordinates":[50.4501,30.5234],"name_ru":""},{"name":"Смирнова-Ласточкіна","type":"вул.","prev_name":"Вознесенський узвіз; Іларіонівський узвіз; Смірнова ім. вул.[39]; Смирнова узв.; Смирнова-Ласточкіна узвіз[7]","district":"Шевченківський","area":"Кудрявець","coordinates":[50.46306999999999,30.506058],"name_ru":""},{"name":"Смородинський","type":"узв.","prev_name":"Диковський; Діновський","district":"Шевченківський","area":"Куренівка","coordinates":[50.4501,30.5234],"name_ru":""},{"name":"Сови Андрія","type":"вул.","prev_name":"Нова","district":"Деснянський","area":"Троєщина","coordinates":[50.4501,30.5234],"name_ru":""},{"name":"Старобориспільська","type":"вул.","prev_name":"","district":"Дарницький","area":"Рембаза","coordinates":[50.4501,30.5234],"name_ru":""},{"name":"Старообухівська","type":"вул.","prev_name":"","district":"Голосіївський","area":"","coordinates":[50.4501,30.5234],"name_ru":""},{"name":"Сухомлинського Василя","type":"вул.","prev_name":"Нова","district":"Деснянський","area":"Троєщина","coordinates":[50.4501,30.5234],"name_ru":""},{"name":"Тальнівська","type":"вул.","prev_name":"Ленінградська, Осокорська","district":"Дарницький","area":"Позняки","coordinates":[50.408817,30.619009],"name_ru":""},{"name":"Тихорєцька","type":"вул.","prev_name":"Нова 764-а","district":"Голосіївський","area":"Ширма","coordinates":[50.39951300000001,30.495611],"name_ru":""},{"name":"Томашевська","type":"вул.","prev_name":"Томашівського[23]","district":"Деснянський","area":"Куликове","coordinates":[50.4501,30.5234],"name_ru":""},{"name":"Успішна","type":"вул.","prev_name":"Вільямса-1","district":"Голосіївський","area":"Жуляни","coordinates":[50.4501,30.5234],"name_ru":""},{"name":"Фрометівський","type":"узв.","prev_name":"","district":"Голосіївський","area":"Деміївка, Забайків'я","coordinates":[50.4501,30.5234],"name_ru":""},{"name":"Хотянівська","type":"вул.","prev_name":"","district":"Оболонський","area":"","coordinates":[50.4501,30.5234],"name_ru":""},{"name":"Червона калина","type":"вул.","prev_name":"","district":"Дарницький","area":"","coordinates":[50.4501,30.5234],"name_ru":""},{"name":"Червона Пресня","type":"пл.","prev_name":"","district":"Подільський","area":"Поділ","coordinates":[50.4501,30.5234],"name_ru":""},{"name":"Шелеста Петра","type":"вул.","prev_name":"Нова","district":"Деснянський","area":"Троєщина","coordinates":[50.4501,30.5234],"name_ru":""},{"name":"Юровської Ольги","type":"вул.","prev_name":"Лінія 6","district":"Голосіївський","area":"Чапаєвка","coordinates":[50.4501,30.5234],"name_ru":""}]